[
  {
    "isDelivered": false,
    "location": {
      "address": "Carrer de l\u0027Historiador Chabret,3,46019 València,Valencia,Spain",
      "city": "",
      "latitude": 39.492425,
      "longitude": -0.368503,
      "zipCode": 46020
    },
    "note": "",
    "numPackage": 2,
    "urgency": "NOT_URGENT"
  },
  {
    "isDelivered": false,
    "location": {
      "address": "Carrer de l\u0027Arquitecte Tolsà,1319,46019 València,Valencia,Spain",
      "city": "",
      "latitude": 39.491978,
      "longitude": -0.365413,
      "zipCode": 46020
    },
    "note": "",
    "numPackage": 8,
    "urgency": "NOT_URGENT"
  },
  {
    "isDelivered": false,
    "location": {
      "address": "Carrer d\u0027Agustín Lara,8,46019 València,Valencia,Spain",
      "city": "",
      "latitude": 39.493444,
      "longitude": -0.370982,
      "zipCode": 46020
    },
    "note": "",
    "numPackage": 9,
    "urgency": "NOT_URGENT"
  },
  {
    "isDelivered": false,
    "location": {
      "address": "C. del Músic Hipòlit Martínez,2,46020 València,Valencia,Spain",
      "city": "",
      "latitude": 39.484642,
      "longitude": -0.356584,
      "zipCode": 46020
    },
    "note": "",
    "numPackage": 3,
    "urgency": "NOT_URGENT"
  },
  {
    "isDelivered": false,
    "location": {
      "address": "Benimaclet,46020 Valencia,Spain",
      "city": "",
      "latitude": 39.485007,
      "longitude": -0.36286,
      "zipCode": 46020
    },
    "note": "",
    "numPackage": 7,
    "urgency": "NOT_URGENT"
  }
]